[
  {
    "id": "1",
    "systemid": "212",
    "name": "Legepladsen i Prinsesse Charlottes Gade",
    "adresse": "Prinsesse Charlottes Gade 10",
    "postnr": "2200",
    "staffed": "0",
    "city": "København N",
    "lat": "55.692468",
    "lon": "12.553990",
    "kkid": "40"
  },
  {
    "id": "2",
    "systemid": "213",
    "name": "Legepladsen i Brønshøjparken",
    "adresse": "Brønshøjparken ved Frederikssundsvej\/Hyrdevangen",
    "postnr": "2700",
    "staffed": "0",
    "city": "Brønshøj",
    "lat": "55.706492",
    "lon": "12.507561",
    "kkid": "91"
  },
  {
    "id": "3",
    "systemid": "214",
    "name": "Legepladsen på Brønshøj Torv",
    "adresse": "Brønshøj Torv ved Krabbesholmvej",
    "postnr": "2700",
    "staffed": "0",
    "city": "Brønshøj",
    "lat": "55.703285",
    "lon": "12.498707",
    "kkid": "93"
  },
  {
    "id": "135",
    "systemid": "",
    "name": "ByOasen i De Gamles By",
    "adresse": "Møllegade 25C",
    "postnr": "2200",
    "staffed": "1",
    "city": "København N",
    "lat": "55.692645",
    "lon": "12.557486",
    "kkid": "131"
  },
  {
    "id": "137",
    "systemid": "",
    "name": "Vandlegepladsen i Fælledparken",
    "adresse": "Fælledparken ved Edel Sauntes Allé",
    "postnr": "2100",
    "staffed": "0",
    "city": "København Ø",
    "lat": "55.700662",
    "lon": "12.563639",
    "kkid": "200"
  },
  {
    "id": "138",
    "systemid": "",
    "name": "Den Bemandede Legeplads i Kornblomstparken",
    "adresse": "Øselsgade 5",
    "postnr": "2300",
    "staffed": "1",
    "city": "København S",
    "lat": "55.661542",
    "lon": "12.601004",
    "kkid": "133"
  },
  {
    "id": "12",
    "systemid": "224",
    "name": "Legepladsen i Utterslev Mose - Ved Vigen",
    "adresse": "ved stien bag Emdrup Kirke",
    "postnr": "2700",
    "staffed": "0",
    "city": "Brønshøj",
    "lat": "55.720977",
    "lon": "12.528341",
    "kkid": "95"
  },
  {
    "id": "134",
    "systemid": "",
    "name": "Legepladsen i Mimersparken",
    "adresse": "Borgmestervangen 51",
    "postnr": "2200",
    "staffed": "1",
    "city": "København N",
    "lat": "55.704728",
    "lon": "12.541301",
    "kkid": "167"
  },
  {
    "id": "4",
    "systemid": "215",
    "name": "Legepladsen på Fuglsang Alle",
    "adresse": "Fuglsang Alle over for Beldringevej",
    "postnr": "2700",
    "staffed": "0",
    "city": "Brønshøj",
    "lat": "55.697704",
    "lon": "12.497290",
    "kkid": "75"
  },
  {
    "id": "5",
    "systemid": "216",
    "name": "Legepladsen på Gislingevej ved Grevingevej",
    "adresse": "Gislingevej\/Grevingevej",
    "postnr": "2700",
    "staffed": "0",
    "city": "Brønshøj",
    "lat": "55.708272",
    "lon": "12.469670",
    "kkid": "90"
  },
  {
    "id": "6",
    "systemid": "217",
    "name": "Legepladsen i Gyngemosen ved Langhusvej",
    "adresse": "Gyngemosen ved Langhusvej",
    "postnr": "2700",
    "staffed": "0",
    "city": "Brønshøj",
    "lat": "55.722819",
    "lon": "12.481510",
    "kkid": "85"
  },
  {
    "id": "7",
    "systemid": "218",
    "name": "Legepladsen på Liselundvej",
    "adresse": "Liselundvej over for Brønshøjgårdvej 25",
    "postnr": "2700",
    "staffed": "0",
    "city": "Brønshøj",
    "lat": "55.703550",
    "lon": "12.494230",
    "kkid": "94"
  },
  {
    "id": "8",
    "systemid": "219",
    "name": "Naturlegepladsen i Rødkildeparken",
    "adresse": "ved Hvidkildevej",
    "postnr": "2700",
    "staffed": "0",
    "city": "Brønshøj",
    "lat": "55.699441",
    "lon": "12.510595",
    "kkid": "73"
  },
  {
    "id": "13",
    "systemid": "225",
    "name": "Legepladsen på Vestvolden ved Banefløjsstien",
    "adresse": "v. Banefløjsstien",
    "postnr": "2700",
    "staffed": "0",
    "city": "Brønshøj",
    "lat": "55.713780",
    "lon": "12.458872",
    "kkid": "138"
  },
  {
    "id": "14",
    "systemid": "226",
    "name": "Legepladsen på Vestvolden ved Bystævnet",
    "adresse": "Vestvolden ved Bystævnet",
    "postnr": "2700",
    "staffed": "0",
    "city": "Brønshøj",
    "lat": "55.717579",
    "lon": "12.476350",
    "kkid": "86"
  },
  {
    "id": "9",
    "systemid": "220",
    "name": "Legepladsen i Utterslev Mose ved Engsvinget\/Hyrdevangen",
    "adresse": "Engsvinget over for Hyrdevangen",
    "postnr": "2700",
    "staffed": "0",
    "city": "Brønshøj",
    "lat": "55.713485",
    "lon": "12.516042",
    "kkid": "97"
  },
  {
    "id": "10",
    "systemid": "222",
    "name": "Legepladsen i Utterslev Mose ved Pilesvinget 5",
    "adresse": "Ud for Pilesvinget 5 mellem Brønshøj Kirkevej og Hvedevej",
    "postnr": "2700",
    "staffed": "0",
    "city": "Brønshøj",
    "lat": "55.712069",
    "lon": "12.498413",
    "kkid": "88"
  },
  {
    "id": "11",
    "systemid": "223",
    "name": "Legepladsen i Utterslev Mose ud for Pilesvinget 65",
    "adresse": "Pilesvinget for enden af Klintevej",
    "postnr": "2700",
    "staffed": "0",
    "city": "Brønshøj",
    "lat": "55.709382",
    "lon": "12.487853",
    "kkid": "89"
  },
  {
    "id": "15",
    "systemid": "227",
    "name": "Legepladsen på Vestvolden ved Mørkhøjvej",
    "adresse": "Vestvolden ved Mørkhøjvej",
    "postnr": "2700",
    "staffed": "0",
    "city": "Brønshøj",
    "lat": "55.717241",
    "lon": "12.470500",
    "kkid": "87"
  },
  {
    "id": "16",
    "systemid": "228",
    "name": "Legepladsen på Bispebjerg Parkallé",
    "adresse": "Bispebjerg Parkalle ud for Henriksvej",
    "postnr": "2400",
    "staffed": "0",
    "city": "København NV",
    "lat": "55.720119",
    "lon": "12.532900",
    "kkid": "96"
  },
  {
    "id": "18",
    "systemid": "230",
    "name": "Legepladsen i Lersøparken",
    "adresse": "tæt ved parkindgangen ved Tagensvej\/Lersøstien",
    "postnr": "2400",
    "staffed": "0",
    "city": "København NV",
    "lat": "55.709540",
    "lon": "12.543023",
    "kkid": "99"
  },
  {
    "id": "19",
    "systemid": "231",
    "name": "Legepladsen på Mejsevænget",
    "adresse": "Mejsevænget ud for nr. 11",
    "postnr": "2400",
    "staffed": "0",
    "city": "København NV",
    "lat": "55.697681",
    "lon": "12.530336",
    "kkid": "102"
  },
  {
    "id": "20",
    "systemid": "232",
    "name": "Legepladsen på Møntmestervej",
    "adresse": "Møntmestervej mellem 14 og 16",
    "postnr": "",
    "staffed": "0",
    "city": "Bispebjerg",
    "lat": "55.706983",
    "lon": "12.520847",
    "kkid": "137"
  },
  {
    "id": "21",
    "systemid": "233",
    "name": "Legepladsen på Rørsangervej",
    "adresse": "Rørsangervej 82",
    "postnr": "",
    "staffed": "0",
    "city": "Bispebjerg",
    "lat": "55.702155",
    "lon": "12.524655",
    "kkid": "101"
  },
  {
    "id": "127",
    "systemid": "670",
    "name": "Legepladsen i Amorparken",
    "adresse": "på hjørnet af Tagensvej og Juliane Maries Vej",
    "postnr": "2200",
    "staffed": "0",
    "city": "København N",
    "lat": "55.697090",
    "lon": "12.562240",
    "kkid": "132"
  },
  {
    "id": "22",
    "systemid": "234",
    "name": "Legepladsen i Norgesgade",
    "adresse": "Norgesgade mellem nr. 26 og 56",
    "postnr": "2300",
    "staffed": "0",
    "city": "København S",
    "lat": "55.663488",
    "lon": "12.596297",
    "kkid": "117"
  },
  {
    "id": "23",
    "systemid": "235",
    "name": "Legepladsen i Rødegårdsparken",
    "adresse": "ved Øresundsvej 39",
    "postnr": "2300",
    "staffed": "0",
    "city": "København S",
    "lat": "55.661526",
    "lon": "12.611200",
    "kkid": "107"
  },
  {
    "id": "24",
    "systemid": "236",
    "name": "Legepladsen på Skotlands Plads",
    "adresse": "mellem Sundholmsvej 95 og 107",
    "postnr": "2300",
    "staffed": "0",
    "city": "København S",
    "lat": "55.658182",
    "lon": "12.604784",
    "kkid": "119"
  },
  {
    "id": "25",
    "systemid": "237",
    "name": "Legepladsen i Allersgade",
    "adresse": "i Thorsparken mellem Allersgade og Thorsgade",
    "postnr": "2200",
    "staffed": "0",
    "city": "København N",
    "lat": "55.696761",
    "lon": "12.547110",
    "kkid": "36"
  },
  {
    "id": "26",
    "systemid": "238",
    "name": "Legepladsen i Baldersgade",
    "adresse": "Balders Plads",
    "postnr": "2200",
    "staffed": "0",
    "city": "København N",
    "lat": "55.701211",
    "lon": "12.548150",
    "kkid": "33"
  },
  {
    "id": "27",
    "systemid": "239",
    "name": "Legepladsen på Lersø Parkallé",
    "adresse": "ved Gyritegade ud for Lersø Parkallé 23-57",
    "postnr": "",
    "staffed": "0",
    "city": "København N",
    "lat": "55.705544",
    "lon": "12.556859",
    "kkid": "32"
  },
  {
    "id": "28",
    "systemid": "240",
    "name": "Legepladsen i Odinsgade",
    "adresse": "mellem Jagtvej og Thorsgade",
    "postnr": "2200",
    "staffed": "0",
    "city": "København N",
    "lat": "55.697099",
    "lon": "12.550180",
    "kkid": "34"
  },
  {
    "id": "29",
    "systemid": "241",
    "name": "Legepladsen på Damhusengen - Elvergårdsvej",
    "adresse": "Damhusengen for enden af Elvergårdsvej",
    "postnr": "2720",
    "staffed": "0",
    "city": "Vanløse",
    "lat": "55.681074",
    "lon": "12.469921",
    "kkid": "84"
  },
  {
    "id": "30",
    "systemid": "242",
    "name": "Legepladsen på Damhusengen - Jyllingevej",
    "adresse": "Jylligevej 125-127",
    "postnr": "2720",
    "staffed": "0",
    "city": "Vanløse",
    "lat": "55.690732",
    "lon": "12.467392",
    "kkid": "136"
  },
  {
    "id": "31",
    "systemid": "243",
    "name": "Legepladsen på Damhusengen ved Vanløse Byvej",
    "adresse": "ved Vanløse Byvej",
    "postnr": "2720",
    "staffed": "0",
    "city": "Vanløse",
    "lat": "55.687213",
    "lon": "12.470962",
    "kkid": "82"
  },
  {
    "id": "36",
    "systemid": "248",
    "name": "Legepladsen på Grøndalsvænge Alle",
    "adresse": "Grøndalsvænge Alle over for Morbærvej",
    "postnr": "2720",
    "staffed": "0",
    "city": "Vanløse",
    "lat": "55.692611",
    "lon": "12.519066",
    "kkid": "79"
  },
  {
    "id": "32",
    "systemid": "244",
    "name": "Legepladsen på Genforeningspladsen nord",
    "adresse": "ved Hulgårdsvej 86-90",
    "postnr": "2720",
    "staffed": "0",
    "city": "Vanløse",
    "lat": "55.699746",
    "lon": "12.517784",
    "kkid": "72"
  },
  {
    "id": "33",
    "systemid": "245",
    "name": "Legepladsen på Genforeningspladsen syd",
    "adresse": "ved Mågevej",
    "postnr": "2720",
    "staffed": "0",
    "city": "Vanløse",
    "lat": "55.698803",
    "lon": "12.521574",
    "kkid": "74"
  },
  {
    "id": "34",
    "systemid": "246",
    "name": "Legepladsen på Grøndal Torv",
    "adresse": "over for Godthåbsvej 203",
    "postnr": "2720",
    "staffed": "0",
    "city": "Vanløse",
    "lat": "55.693303",
    "lon": "12.512988",
    "kkid": "78"
  },
  {
    "id": "35",
    "systemid": "247",
    "name": "Legepladsen i Grøndalsparken",
    "adresse": "Grøndals Parkvej over for Arnestedet",
    "postnr": "2720",
    "staffed": "0",
    "city": "Vanløse",
    "lat": "55.681113",
    "lon": "12.491492",
    "kkid": "83"
  },
  {
    "id": "37",
    "systemid": "249",
    "name": "Legepladsen på Jyllingevej",
    "adresse": "Jyllingevej over for Jernbane Alle",
    "postnr": "2720",
    "staffed": "0",
    "city": "Vanløse",
    "lat": "55.692645",
    "lon": "12.486754",
    "kkid": "80"
  },
  {
    "id": "38",
    "systemid": "250",
    "name": "Legepladsen i Krogebjergparken",
    "adresse": "ved Roshagevej",
    "postnr": "2720",
    "staffed": "0",
    "city": "Vanløse",
    "lat": "55.696257",
    "lon": "12.464857",
    "kkid": "77"
  },
  {
    "id": "39",
    "systemid": "251",
    "name": "Legepladsen på Skibelundvej",
    "adresse": "Skibelundvej 12",
    "postnr": "2720",
    "staffed": "0",
    "city": "Vanløse",
    "lat": "55.692197",
    "lon": "12.496015",
    "kkid": "81"
  },
  {
    "id": "40",
    "systemid": "252",
    "name": "Legepladsen på Ålekistevej",
    "adresse": "v. Vanløse Skole",
    "postnr": "2720",
    "staffed": "0",
    "city": "Vanløse",
    "lat": "55.686819",
    "lon": "12.482142",
    "kkid": "139"
  },
  {
    "id": "41",
    "systemid": "253",
    "name": "Legepladsen i Broagergade",
    "adresse": "Broagergade",
    "postnr": "1672",
    "staffed": "0",
    "city": "København V",
    "lat": "55.668470",
    "lon": "12.545940",
    "kkid": "49"
  },
  {
    "id": "42",
    "systemid": "254",
    "name": "Legepladsen på Enghave Plads",
    "adresse": "Enghavevej mellem nr. 42 og 56",
    "postnr": "1674",
    "staffed": "0",
    "city": "København V",
    "lat": "55.667208",
    "lon": "12.544940",
    "kkid": "51"
  },
  {
    "id": "43",
    "systemid": "255",
    "name": "Legepladsen i Saxoparken",
    "adresse": "Matthæusgade 8",
    "postnr": "1666",
    "staffed": "0",
    "city": "København V",
    "lat": "55.670917",
    "lon": "12.551250",
    "kkid": "47"
  },
  {
    "id": "44",
    "systemid": "256",
    "name": "Legepladsen på Sjælør Boulevard",
    "adresse": "Sjælør Boulevard ved Mozartsvej",
    "postnr": "2450",
    "staffed": "0",
    "city": "København SV",
    "lat": "55.647932",
    "lon": "12.528681",
    "kkid": "55"
  },
  {
    "id": "45",
    "systemid": "257",
    "name": "Legepladsen i Rektorparken",
    "adresse": "Rektorparken",
    "postnr": "2450",
    "staffed": "0",
    "city": "København SV",
    "lat": "55.662416",
    "lon": "12.532550",
    "kkid": "54"
  },
  {
    "id": "46",
    "systemid": "259",
    "name": "Legepladsen på Carl Langes Vej",
    "adresse": "Carl Langes Vej mellem Eschrichtsvej og Panumsvej",
    "postnr": "2500",
    "staffed": "0",
    "city": "Valby",
    "lat": "55.663813",
    "lon": "12.498820",
    "kkid": "59"
  },
  {
    "id": "47",
    "systemid": "260",
    "name": "Legepladsen på Lykkebovej",
    "adresse": "Lykkebovej over for Højbovej",
    "postnr": "2500",
    "staffed": "0",
    "city": "Valby",
    "lat": "55.658645",
    "lon": "12.487540",
    "kkid": "63"
  },
  {
    "id": "48",
    "systemid": "261",
    "name": "Legepladsen på Steins Plads",
    "adresse": "Steins Plads",
    "postnr": "2500",
    "staffed": "0",
    "city": "Valby",
    "lat": "55.662101",
    "lon": "12.503910",
    "kkid": "60"
  },
  {
    "id": "49",
    "systemid": "262",
    "name": "Legepladsen i Trekronergade",
    "adresse": "Vigerslev Allé\/Trekronergade",
    "postnr": "2500",
    "staffed": "0",
    "city": "Valby",
    "lat": "55.661378",
    "lon": "12.519082",
    "kkid": "61"
  },
  {
    "id": "50",
    "systemid": "263",
    "name": "Legepladsen i Valbyparken ved Cafe Rosenhaven",
    "adresse": "ved Hammelstrupvej 100",
    "postnr": "2450",
    "staffed": "0",
    "city": "København SV",
    "lat": "55.642458",
    "lon": "12.519940",
    "kkid": "70"
  },
  {
    "id": "51",
    "systemid": "264",
    "name": "Børnenes Årtusindskiftehave i Valbyparken (Kærestehaven)",
    "adresse": "Temahave i Valbyparken",
    "postnr": "2450",
    "staffed": "0",
    "city": "København SV",
    "lat": "55.640653",
    "lon": "12.520660",
    "kkid": "71"
  },
  {
    "id": "52",
    "systemid": "265",
    "name": "Legepladsen på Vigerslev Alle",
    "adresse": "adgang fra Kærskiftevej 151-159",
    "postnr": "2500",
    "staffed": "0",
    "city": "Valby",
    "lat": "55.656896",
    "lon": "12.486906",
    "kkid": "65"
  },
  {
    "id": "53",
    "systemid": "266",
    "name": "Legepladsen i Vigerslevparken ved Lykkebovej\/Engdals Alle",
    "adresse": "Vigerslevparken ved Lykkebovej\/Engdals Alle",
    "postnr": "2500",
    "staffed": "0",
    "city": "Valby",
    "lat": "55.657864",
    "lon": "12.478330",
    "kkid": "64"
  },
  {
    "id": "54",
    "systemid": "267",
    "name": "Legepladsen i Vigerslevparken ved Engdraget 63",
    "adresse": "Vigerslevparken ved Engdraget 63\/Mellemleddet",
    "postnr": "2500",
    "staffed": "0",
    "city": "Valby",
    "lat": "55.667010",
    "lon": "12.479220",
    "kkid": "58"
  },
  {
    "id": "55",
    "systemid": "268",
    "name": "Legepladsen i Vigerslevparken ved Stakhaven",
    "adresse": "Vigerslevparken ved Stakhaven",
    "postnr": "2500",
    "staffed": "0",
    "city": "Valby",
    "lat": "55.646006",
    "lon": "12.495590",
    "kkid": "68"
  },
  {
    "id": "56",
    "systemid": "269",
    "name": "Legepladsen på Vilhelm Thomsens Allé",
    "adresse": "Vilhelm Thomsens Allé 42",
    "postnr": "2500",
    "staffed": "0",
    "city": "Valby",
    "lat": "55.659506",
    "lon": "12.505309",
    "kkid": "62"
  },
  {
    "id": "57",
    "systemid": "270",
    "name": "Legepladsen på Hauser Plads",
    "adresse": "overfor Hauser Plads 16",
    "postnr": "1127",
    "staffed": "0",
    "city": "København K",
    "lat": "55.682761",
    "lon": "12.575630",
    "kkid": "7"
  },
  {
    "id": "58",
    "systemid": "271",
    "name": "Legepladsen på Israels Plads",
    "adresse": "ved Ahlefeldsgade",
    "postnr": "1361",
    "staffed": "0",
    "city": "København K",
    "lat": "55.682635",
    "lon": "12.568510",
    "kkid": "8"
  },
  {
    "id": "59",
    "systemid": "272",
    "name": "Legepladsen på Kastellet ved Folke Bernadottes Alle\/Grønningen",
    "adresse": "nær indgangen til Kastellet ved Grønningen\/Folke Bernadottes Alle",
    "postnr": "2100",
    "staffed": "0",
    "city": "København Ø",
    "lat": "55.692685",
    "lon": "12.591680",
    "kkid": "2"
  },
  {
    "id": "60",
    "systemid": "273",
    "name": "Legepladsen i Langelinieanlægget",
    "adresse": "Langelinie ved Langeliniepavillonen",
    "postnr": "1259",
    "staffed": "0",
    "city": "København K",
    "lat": "55.691010",
    "lon": "12.599730",
    "kkid": "3"
  },
  {
    "id": "73",
    "systemid": "286",
    "name": "Skaterpark i Fælledparken ved Edel Sauntes Alle",
    "adresse": "Edel Sauntes Allé",
    "postnr": "2100",
    "staffed": "0",
    "city": "København Ø",
    "lat": "55.699512",
    "lon": "12.562950",
    "kkid": "25"
  },
  {
    "id": "84",
    "systemid": "297",
    "name": "Legepladsen i Udbygade",
    "adresse": "Udbygade\/Guldbergsgade\/Sjællandsgade",
    "postnr": "2200",
    "staffed": "0",
    "city": "København N",
    "lat": "55.694439",
    "lon": "12.553700",
    "kkid": "39"
  },
  {
    "id": "61",
    "systemid": "274",
    "name": "Legepladsen på Nikolaj Plads",
    "adresse": "ud for Nikolaj Plads 5 - 11",
    "postnr": "1067",
    "staffed": "0",
    "city": "København K",
    "lat": "55.678818",
    "lon": "12.582044",
    "kkid": "13"
  },
  {
    "id": "62",
    "systemid": "275",
    "name": "Legepladsen på Sankt Annæ Plads",
    "adresse": "ud for Sankt Annæ Plads 13",
    "postnr": "1250",
    "staffed": "0",
    "city": "København K",
    "lat": "55.658415",
    "lon": "12.578316",
    "kkid": "10"
  },
  {
    "id": "63",
    "systemid": "276",
    "name": "Legepladsen i Ørstedsparken ved Nørre Farimagsgade \/ Ahlefeldtsgade",
    "adresse": "over for Ahlefeldtsgade 16",
    "postnr": "1359",
    "staffed": "0",
    "city": "København K",
    "lat": "55.682511",
    "lon": "12.566444",
    "kkid": "9"
  },
  {
    "id": "64",
    "systemid": "277",
    "name": "Legepladsen i Østre Anlæg ved Sølvtorvet",
    "adresse": "Østre Anlæg ved Sølvtorvet",
    "postnr": "1371",
    "staffed": "0",
    "city": "København K",
    "lat": "55.689526",
    "lon": "12.576079",
    "kkid": "5"
  },
  {
    "id": "65",
    "systemid": "278",
    "name": "Legepladsen på Christianshavns Vold - Panterens Bastion",
    "adresse": "Panterens Bastion",
    "postnr": "1424",
    "staffed": "0",
    "city": "København K",
    "lat": "55.669597",
    "lon": "12.588560",
    "kkid": "14"
  },
  {
    "id": "66",
    "systemid": "279",
    "name": "Aktivitetspladserne på Prags Boulevard",
    "adresse": "Prags Boulevard - aktivitetspladserne langs parken",
    "postnr": "",
    "staffed": "0",
    "city": "københavn S",
    "lat": "55.667078",
    "lon": "12.610942",
    "kkid": "104"
  },
  {
    "id": "67",
    "systemid": "280",
    "name": "Legepladsen på Bopa Plads",
    "adresse": "Viborggade\/Randersgade\/Løgstørgade",
    "postnr": "2100",
    "staffed": "0",
    "city": "København Ø",
    "lat": "55.705244",
    "lon": "12.581127",
    "kkid": "22"
  },
  {
    "id": "68",
    "systemid": "281",
    "name": "Legepladsen i Classens Have",
    "adresse": "Classensgade over for Fiskedamsgade",
    "postnr": "2100",
    "staffed": "0",
    "city": "København Ø",
    "lat": "55.698150",
    "lon": "12.589651",
    "kkid": "1"
  },
  {
    "id": "69",
    "systemid": "282",
    "name": "Legepladsen i Fredens Park",
    "adresse": "Fredensgade ved hjørnet af Søpassagen og Ryesgade",
    "postnr": "2100",
    "staffed": "0",
    "city": "København K",
    "lat": "55.693375",
    "lon": "12.568240",
    "kkid": "30"
  },
  {
    "id": "128",
    "systemid": "",
    "name": "Legepladsen i Folkets Park",
    "adresse": "Stengade 50",
    "postnr": "2200",
    "staffed": "0",
    "city": "København N",
    "lat": "55.687500",
    "lon": "12.555090",
    "kkid": "31"
  },
  {
    "id": "129",
    "systemid": "",
    "name": "Legepladsen i BaNanna Park",
    "adresse": "Nannasgade 6",
    "postnr": "2200",
    "staffed": "0",
    "city": "København N",
    "lat": "55.700740",
    "lon": "12.551150",
    "kkid": "130"
  },
  {
    "id": "130",
    "systemid": "",
    "name": "Legepladsen på Rødelandsvej",
    "adresse": "Rødelandsvej over for nummer 3",
    "postnr": "2300",
    "staffed": "0",
    "city": "København S",
    "lat": "55.641857",
    "lon": "12.593725",
    "kkid": "127"
  },
  {
    "id": "131",
    "systemid": "",
    "name": "Legepladserne i Ørestad Bypark",
    "adresse": "Mellem C. F. Møllers Alle, Center Boulevard og Ørestads Boulevards",
    "postnr": "2300",
    "staffed": "0",
    "city": "København S",
    "lat": "",
    "lon": "",
    "kkid": "128"
  },
  {
    "id": "133",
    "systemid": "",
    "name": "Legepladsen midt i Remiseparken ved højen",
    "adresse": "for enden af Knapmagerstien",
    "postnr": "2300",
    "staffed": "0",
    "city": "København S",
    "lat": "55.651148",
    "lon": "12.594382",
    "kkid": "124"
  },
  {
    "id": "70",
    "systemid": "283",
    "name": "Sansehaven i Fælledparken",
    "adresse": "ved Trianglen",
    "postnr": "2100",
    "staffed": "0",
    "city": "København Ø",
    "lat": "55.699844",
    "lon": "12.573240",
    "kkid": "27"
  },
  {
    "id": "71",
    "systemid": "284",
    "name": "Legepladsen i Fælledparken ved Serridslevvej nord",
    "adresse": "Borgmester Jensens Allé\/Serridslevvej",
    "postnr": "2100",
    "staffed": "0",
    "city": "København Ø",
    "lat": "55.706827",
    "lon": "12.570770",
    "kkid": "20"
  },
  {
    "id": "72",
    "systemid": "285",
    "name": "Legepladsen i Fælledparken ved Serridslevvej syd",
    "adresse": "over for Serridslevvej 2",
    "postnr": "2100",
    "staffed": "0",
    "city": "København Ø",
    "lat": "55.705932",
    "lon": "12.572580",
    "kkid": "21"
  },
  {
    "id": "74",
    "systemid": "287",
    "name": "Legepladsen i Livjægergade ved Rosenvængets Alle",
    "adresse": "Hjørnet af Livjægergade\/Næstvedgade\/Rosenvængets Allé",
    "postnr": "2100",
    "staffed": "0",
    "city": "København Ø",
    "lat": "55.700241",
    "lon": "12.585161",
    "kkid": "26"
  },
  {
    "id": "75",
    "systemid": "288",
    "name": "Legepladsen på Silkeborg Plads",
    "adresse": "Silkeborg Plads\/Horsensgade",
    "postnr": "2100",
    "staffed": "0",
    "city": "København Ø",
    "lat": "55.704933",
    "lon": "12.585134",
    "kkid": "23"
  },
  {
    "id": "76",
    "systemid": "289",
    "name": "Legepladsen på Århus Plads",
    "adresse": "Århus Plads 2 - 6",
    "postnr": "2100",
    "staffed": "0",
    "city": "København Ø",
    "lat": "55.706710",
    "lon": "12.582967",
    "kkid": "19"
  },
  {
    "id": "77",
    "systemid": "290",
    "name": "Legepladsen i Musholmgade",
    "adresse": "Musholmgade",
    "postnr": "2100",
    "staffed": "0",
    "city": "København Ø",
    "lat": "55.711585",
    "lon": "12.574732",
    "kkid": "17"
  },
  {
    "id": "78",
    "systemid": "291",
    "name": "Legepladsen i Svendborggade",
    "adresse": "Svendborggade\/Nyborggade",
    "postnr": "2100",
    "staffed": "0",
    "city": "København Ø",
    "lat": "55.709547",
    "lon": "12.583203",
    "kkid": "18"
  },
  {
    "id": "79",
    "systemid": "292",
    "name": "Legepladsen på Blågårds Plads",
    "adresse": "Blågårds Plads",
    "postnr": "2200",
    "staffed": "0",
    "city": "København N",
    "lat": "55.686614",
    "lon": "12.556720",
    "kkid": "45"
  },
  {
    "id": "80",
    "systemid": "293",
    "name": "Legepladsen på Guldbergs Plads",
    "adresse": "mellem Guldbergsgade og Tibirkegade",
    "postnr": "2200",
    "staffed": "0",
    "city": "København N",
    "lat": "55.696803",
    "lon": "12.553860",
    "kkid": "35"
  },
  {
    "id": "81",
    "systemid": "294",
    "name": "Legepladsen i Hans Tavsens Park vest",
    "adresse": "Hans Tavsens Gade 40",
    "postnr": "2200",
    "staffed": "1",
    "city": "København N",
    "lat": "55.690044",
    "lon": "12.546108",
    "kkid": "41"
  },
  {
    "id": "82",
    "systemid": "295",
    "name": "Legepladsen i Ravnsborggade\/Sankt Hans Gade",
    "adresse": "Ravnsborggade 23\/Sankt Hans Gade 13",
    "postnr": "2200",
    "staffed": "0",
    "city": "København N",
    "lat": "55.689506",
    "lon": "12.563244",
    "kkid": "42"
  },
  {
    "id": "83",
    "systemid": "296",
    "name": "Legepladsen i Sankt Hans Gade",
    "adresse": "Sankt Hans Gade 3 - 5",
    "postnr": "2200",
    "staffed": "0",
    "city": "København N",
    "lat": "55.689710",
    "lon": "12.563130",
    "kkid": "43"
  },
  {
    "id": "85",
    "systemid": "298",
    "name": "Legepladsen i Sætersdalparken",
    "adresse": "over for Sætersdalgade 1-15",
    "postnr": "2300",
    "staffed": "0",
    "city": "København S",
    "lat": "55.656251",
    "lon": "12.602364",
    "kkid": "120"
  },
  {
    "id": "87",
    "systemid": "300",
    "name": "Legepladsen på Georginevej",
    "adresse": "Georginevej\/Gyldenlakvej",
    "postnr": "2300",
    "staffed": "0",
    "city": "København S",
    "lat": "55.644560",
    "lon": "12.613400",
    "kkid": "126"
  },
  {
    "id": "88",
    "systemid": "301",
    "name": "Legepladsen på Højdevej",
    "adresse": "Højdevej\/Kirkegårdsvej",
    "postnr": "2300",
    "staffed": "0",
    "city": "København S",
    "lat": "55.655174",
    "lon": "12.613925",
    "kkid": "110"
  },
  {
    "id": "93",
    "systemid": "306",
    "name": "Legepladsen på Tømmergrundens\/Artillerivej",
    "adresse": "Artillerivej ud for Axel Heides Gade",
    "postnr": "2300",
    "staffed": "0",
    "city": "København S",
    "lat": "55.659920",
    "lon": "12.573885",
    "kkid": "118"
  },
  {
    "id": "89",
    "systemid": "302",
    "name": "Legepladsen på Kastrup Fort",
    "adresse": "Kastrup Fort ved fortets sydlige bastion",
    "postnr": "2300",
    "staffed": "0",
    "city": "København S",
    "lat": "55.647174",
    "lon": "12.640450",
    "kkid": "113"
  },
  {
    "id": "90",
    "systemid": "303",
    "name": "Legepladsen på Sundbyøster Plads",
    "adresse": "Amagerbrogade ved Smyrnavej",
    "postnr": "2300",
    "staffed": "0",
    "city": "København S",
    "lat": "55.651515",
    "lon": "12.612890",
    "kkid": "112"
  },
  {
    "id": "91",
    "systemid": "304",
    "name": "Legepladsen i Sundbyvester Park",
    "adresse": "ved Englandsvej\/Skolemagerstien",
    "postnr": "2300",
    "staffed": "0",
    "city": "København S",
    "lat": "55.650806",
    "lon": "12.601297",
    "kkid": "123"
  },
  {
    "id": "92",
    "systemid": "305",
    "name": "Legepladsen på Sundbyvester Plads",
    "adresse": "Sundbyvestervej\/Gyldenlakvej",
    "postnr": "2300",
    "staffed": "0",
    "city": "København S",
    "lat": "55.646440",
    "lon": "12.612370",
    "kkid": "125"
  },
  {
    "id": "94",
    "systemid": "307",
    "name": "Legepladsen i Havneparken syd",
    "adresse": "Islands Brygge over for Halfdansgade",
    "postnr": "2300",
    "staffed": "0",
    "city": "København S",
    "lat": "55.665456",
    "lon": "12.574271",
    "kkid": "115"
  },
  {
    "id": "95",
    "systemid": "308",
    "name": "Legepladsen på Hulgårds Plads",
    "adresse": "Hulgårds Plads 6",
    "postnr": "2400",
    "staffed": "1",
    "city": "København NV",
    "lat": "55.705038",
    "lon": "12.522326",
    "kkid": "100"
  },
  {
    "id": "96",
    "systemid": "309",
    "name": "Legepladsen i Kildevældsparken",
    "adresse": "Vognmandsmarken 69",
    "postnr": "2100",
    "staffed": "1",
    "city": "København Ø",
    "lat": "55.714371",
    "lon": "12.565184",
    "kkid": "16"
  },
  {
    "id": "97",
    "systemid": "310",
    "name": "Legepladsen på Nørager Plads",
    "adresse": "Nørager Plads 23",
    "postnr": "2720",
    "staffed": "1",
    "city": "Vanløse",
    "lat": "55.696088",
    "lon": "12.474969",
    "kkid": "76"
  },
  {
    "id": "144",
    "systemid": "",
    "name": "Husum Bypark ",
    "adresse": " Frederikssundsvej 281-299 ",
    "postnr": "2700",
    "staffed": "0",
    "city": "Brønshøj",
    "lat": "55.709698",
    "lon": "12.479510",
    "kkid": "134"
  },
  {
    "id": "98",
    "systemid": "311",
    "name": "Legepladsen i Lergravsparken",
    "adresse": "Lergravsvej 16",
    "postnr": "2300",
    "staffed": "1",
    "city": "København S",
    "lat": "55.662397",
    "lon": "12.618300",
    "kkid": "105"
  },
  {
    "id": "99",
    "systemid": "312",
    "name": "Legepladsen på Christianshavns Vold - Elefantens Bastion",
    "adresse": "Christianshavns Voldgade 36",
    "postnr": "1424",
    "staffed": "1",
    "city": "København K",
    "lat": "55.669633",
    "lon": "12.593240",
    "kkid": "15"
  },
  {
    "id": "100",
    "systemid": "313",
    "name": "Bemandet legeplads i Ørstedsparken ved Nørre Farimagsgade",
    "adresse": "Nørre Farimagsgade 2",
    "postnr": "1364",
    "staffed": "1",
    "city": "København K",
    "lat": "55.680593",
    "lon": "12.564840",
    "kkid": "11"
  },
  {
    "id": "114",
    "systemid": "329",
    "name": "Legepladsen i Østre Anlæg ved Malmøgade",
    "adresse": "Stockholmsgade 24",
    "postnr": "2100",
    "staffed": "0",
    "city": "København Ø",
    "lat": "55.690490",
    "lon": "12.578780",
    "kkid": "4"
  },
  {
    "id": "101",
    "systemid": "314",
    "name": "Byggelegepladsen i Remiseparken",
    "adresse": "Peder Lykkesvej 73 ved Peder Skrivers Sti",
    "postnr": "2300",
    "staffed": "1",
    "city": "København S",
    "lat": "55.652277",
    "lon": "12.596557",
    "kkid": "122"
  },
  {
    "id": "102",
    "systemid": "315",
    "name": "Legepladsen i Degnestavnen",
    "adresse": "Degnestavnen 20",
    "postnr": "2400",
    "staffed": "1",
    "city": "København NV",
    "lat": "55.710473",
    "lon": "12.525143",
    "kkid": "98"
  },
  {
    "id": "103",
    "systemid": "316",
    "name": "Naturlegepladsen i Valbyparken",
    "adresse": "Hammelstrupvej 41",
    "postnr": "2450",
    "staffed": "1",
    "city": "København SV",
    "lat": "55.644416",
    "lon": "12.519768",
    "kkid": "69"
  },
  {
    "id": "104",
    "systemid": "317",
    "name": "Legepladsen på Gammelvagt",
    "adresse": "Gammelvagt 5",
    "postnr": "1312",
    "staffed": "0",
    "city": "København K",
    "lat": "55.687718",
    "lon": "12.585606",
    "kkid": "6"
  },
  {
    "id": "105",
    "systemid": "318",
    "name": "Den indendørs legeplads i Blegdamsremisen",
    "adresse": "Blegdamsvej 132 A",
    "postnr": "2100",
    "staffed": "1",
    "city": "København Ø",
    "lat": "55.698766",
    "lon": "12.576527",
    "kkid": "28"
  },
  {
    "id": "106",
    "systemid": "319",
    "name": "Legepladsen i Meinungsgade",
    "adresse": "Meinungsgade 13",
    "postnr": "2200",
    "staffed": "0",
    "city": "København N",
    "lat": "55.692575",
    "lon": "12.553771",
    "kkid": "135"
  },
  {
    "id": "107",
    "systemid": "320",
    "name": "Legepladsen i Husumparken",
    "adresse": "Nordrupvej 16",
    "postnr": "2700",
    "staffed": "1",
    "city": "Brønshøj",
    "lat": "55.704022",
    "lon": "12.470750",
    "kkid": "92"
  },
  {
    "id": "108",
    "systemid": "321",
    "name": "Legepladsen på Bispeengen",
    "adresse": "Hillerødgade 23 B adgang via Lundtoftegade 65",
    "postnr": "2200",
    "staffed": "1",
    "city": "København N",
    "lat": "55.695733",
    "lon": "12.536090",
    "kkid": "37"
  },
  {
    "id": "111",
    "systemid": "324",
    "name": "Legepladsen i Hans Tavsens Park øst",
    "adresse": "Hans Tavsens Gade 40",
    "postnr": "2200",
    "staffed": "1",
    "city": "København N",
    "lat": "55.688361",
    "lon": "12.549630",
    "kkid": "44"
  },
  {
    "id": "112",
    "systemid": "325",
    "name": "Legepladsen i Nørrebroparken",
    "adresse": "Stefansgade 28-30",
    "postnr": "2200",
    "staffed": "1",
    "city": "København N",
    "lat": "55.694741",
    "lon": "12.542180",
    "kkid": "38"
  },
  {
    "id": "109",
    "systemid": "322",
    "name": "Bondegårdslegepladsen i Remiseparken",
    "adresse": "Peder Lykkes Vej 71-73",
    "postnr": "2300",
    "staffed": "1",
    "city": "København S",
    "lat": "55.653024",
    "lon": "12.598009",
    "kkid": "121"
  },
  {
    "id": "110",
    "systemid": "323",
    "name": "Legepladsen ved Kirsebærhaven ",
    "adresse": "Kirsebærhaven 14",
    "postnr": "2500",
    "staffed": "0",
    "city": "Valby",
    "lat": "55.649753",
    "lon": "12.502828",
    "kkid": "67"
  },
  {
    "id": "113",
    "systemid": "328",
    "name": "Byggelegepladsen på Bredegrund",
    "adresse": "Bredegrund 8",
    "postnr": "2300",
    "staffed": "1",
    "city": "København S",
    "lat": "55.658687",
    "lon": "12.613866",
    "kkid": "108"
  },
  {
    "id": "115",
    "systemid": "332",
    "name": "Legepladsen i Skydebanehaven",
    "adresse": "Absalonsgade 12",
    "postnr": "1658",
    "staffed": "1",
    "city": "København V",
    "lat": "55.670258",
    "lon": "12.553682",
    "kkid": "48"
  },
  {
    "id": "116",
    "systemid": "333",
    "name": "Legepladsen i Wesselsgade",
    "adresse": "Wesselsgade 12",
    "postnr": "2200",
    "staffed": "1",
    "city": "København N",
    "lat": "55.685876",
    "lon": "12.559787",
    "kkid": "46"
  },
  {
    "id": "120",
    "systemid": "337",
    "name": "Legepladsen i Enghaveparken",
    "adresse": "Ejderstedgade 1",
    "postnr": "1761",
    "staffed": "1",
    "city": "København V",
    "lat": "55.667729",
    "lon": "12.541620",
    "kkid": "50"
  },
  {
    "id": "117",
    "systemid": "334",
    "name": "Trafiklegepladsen i Fælledparken",
    "adresse": "Gunnar Nu Hansens Plads 10",
    "postnr": "2100",
    "staffed": "1",
    "city": "København Ø",
    "lat": "55.704850",
    "lon": "12.570480",
    "kkid": "24"
  },
  {
    "id": "119",
    "systemid": "336",
    "name": "Legepladsen Elba i Filipsparken",
    "adresse": "Parmagade 45",
    "postnr": "2300",
    "staffed": "1",
    "city": "København S",
    "lat": "55.654245",
    "lon": "12.618250",
    "kkid": "111"
  },
  {
    "id": "121",
    "systemid": "338",
    "name": "Legepladsen i Gunløgsgade",
    "adresse": "Gunløgsgade 26",
    "postnr": "2300",
    "staffed": "1",
    "city": "København S",
    "lat": "55.664657",
    "lon": "12.579571",
    "kkid": "116"
  },
  {
    "id": "122",
    "systemid": "339",
    "name": "Tårnlegeplads - Fælledparken1",
    "adresse": "Frederik V's Vej 4",
    "postnr": "2100",
    "staffed": "1",
    "city": "København Ø",
    "lat": "55.697486",
    "lon": "12.569270",
    "kkid": "29"
  },
  {
    "id": "123",
    "systemid": "340",
    "name": "Legepladsen i Havneparken nord",
    "adresse": "Islands Brygge over for Vestmannagade",
    "postnr": "2300",
    "staffed": "0",
    "city": "København S",
    "lat": "55.668823",
    "lon": "12.578723",
    "kkid": "114"
  },
  {
    "id": "125",
    "systemid": "342",
    "name": "Legepladsen på Sønder Boulevard",
    "adresse": "Sønder Boulevard ud for nr. 103",
    "postnr": "1720",
    "staffed": "0",
    "city": "København V",
    "lat": "55.664364",
    "lon": "12.545570",
    "kkid": "52"
  },
  {
    "name": "Konditaget Lüders",
    "lat": "55.7076234909688",
    "lon": "12.598174810409548"
  }
]